{
"type": "FeatureCollection",
"name": "capitais",
"crs": { "type": "name", "properties": { "name": "urn:ogc:def:crs:EPSG::4674" } },
"features": [
{ "type": "Feature", "properties": { "fid": 1, "geometriaaproximada": "Não", "nome": "Boa Vista", "geocodigo": "1400100", "tipocapital": "Capital estadual" }, "geometry": { "type": "Point", "coordinates": [ -60.673511017, 2.81967043300006 ] } },
{ "type": "Feature", "properties": { "fid": 2, "geometriaaproximada": "Não", "nome": "Belo Horizonte", "geocodigo": "3106200", "tipocapital": "Capital estadual" }, "geometry": { "type": "Point", "coordinates": [ -43.9514005979999, -19.891053098999901 ] } },
{ "type": "Feature", "properties": { "fid": 3, "geometriaaproximada": "Não", "nome": "Rio Branco", "geocodigo": "1200401", "tipocapital": "Capital estadual" }, "geometry": { "type": "Point", "coordinates": [ -67.790352256755199, -10.0097268232308 ] } },
{ "type": "Feature", "properties": { "fid": 4, "geometriaaproximada": "Não", "nome": "Palmas", "geocodigo": "1721000", "tipocapital": "Capital estadual" }, "geometry": { "type": "Point", "coordinates": [ -48.324708728, -10.1939013589999 ] } },
{ "type": "Feature", "properties": { "fid": 5, "geometriaaproximada": "Não", "nome": "Rio de Janeiro", "geocodigo": "3304557", "tipocapital": "Capital estadual" }, "geometry": { "type": "Point", "coordinates": [ -43.194725059999897, -22.912468946999901 ] } },
{ "type": "Feature", "properties": { "fid": 6, "geometriaaproximada": "Não", "nome": "João Pessoa", "geocodigo": "2507507", "tipocapital": "Capital estadual" }, "geometry": { "type": "Point", "coordinates": [ -34.861604562, -7.12860940599995 ] } },
{ "type": "Feature", "properties": { "fid": 7, "geometriaaproximada": "Não", "nome": "Natal", "geocodigo": "2408102", "tipocapital": "Capital estadual" }, "geometry": { "type": "Point", "coordinates": [ -35.222780457999903, -5.83396545499994 ] } },
{ "type": "Feature", "properties": { "fid": 8, "geometriaaproximada": "Não", "nome": "Campo Grande", "geocodigo": "5002704", "tipocapital": "Capital estadual" }, "geometry": { "type": "Point", "coordinates": [ -54.61854011, -20.468554486999899 ] } },
{ "type": "Feature", "properties": { "fid": 9, "geometriaaproximada": "Não", "nome": "São Paulo", "geocodigo": "3550308", "tipocapital": "Capital estadual" }, "geometry": { "type": "Point", "coordinates": [ -46.648144513999895, -23.564632414999899 ] } },
{ "type": "Feature", "properties": { "fid": 10, "geometriaaproximada": "Não", "nome": "Curitiba", "geocodigo": "4106902", "tipocapital": "Capital estadual" }, "geometry": { "type": "Point", "coordinates": [ -49.264757357999898, -25.459597374999898 ] } },
{ "type": "Feature", "properties": { "fid": 11, "geometriaaproximada": "Não", "nome": "Belém", "geocodigo": "1501402", "tipocapital": "Capital estadual" }, "geometry": { "type": "Point", "coordinates": [ -48.504430200999899, -1.45635618399996 ] } },
{ "type": "Feature", "properties": { "fid": 12, "geometriaaproximada": "Não", "nome": "São Luís", "geocodigo": "2111300", "tipocapital": "Capital estadual" }, "geometry": { "type": "Point", "coordinates": [ -44.21098739, -2.54210241399994 ] } },
{ "type": "Feature", "properties": { "fid": 13, "geometriaaproximada": "Não", "nome": "Salvador", "geocodigo": "2927408", "tipocapital": "Capital estadual" }, "geometry": { "type": "Point", "coordinates": [ -38.501083216, -12.971772034 ] } },
{ "type": "Feature", "properties": { "fid": 14, "geometriaaproximada": "Não", "nome": "Teresina", "geocodigo": "2211001", "tipocapital": "Capital estadual" }, "geometry": { "type": "Point", "coordinates": [ -42.796507434, -5.09649988199993 ] } },
{ "type": "Feature", "properties": { "fid": 15, "geometriaaproximada": "Não", "nome": "Porto Alegre", "geocodigo": "4314902", "tipocapital": "Capital estadual" }, "geometry": { "type": "Point", "coordinates": [ -51.227035010018703, -30.037857612130999 ] } },
{ "type": "Feature", "properties": { "fid": 16, "geometriaaproximada": "Não", "nome": "Florianópolis", "geocodigo": "4205407", "tipocapital": "Capital estadual" }, "geometry": { "type": "Point", "coordinates": [ -48.540472454344069, -27.599537085660369 ] } },
{ "type": "Feature", "properties": { "fid": 17, "geometriaaproximada": "Não", "nome": "Porto Velho", "geocodigo": "1100205", "tipocapital": "Capital estadual" }, "geometry": { "type": "Point", "coordinates": [ -63.831445654361097, -8.76889179 ] } },
{ "type": "Feature", "properties": { "fid": 18, "geometriaaproximada": "Não", "nome": "Manaus", "geocodigo": "1302603", "tipocapital": "Capital estadual" }, "geometry": { "type": "Point", "coordinates": [ -60.0255074129999, -3.10236266499993 ] } },
{ "type": "Feature", "properties": { "fid": 19, "geometriaaproximada": "Não", "nome": "Macapá", "geocodigo": "1600303", "tipocapital": "Capital estadual" }, "geometry": { "type": "Point", "coordinates": [ -51.066448717999904, 0.03865462300007 ] } },
{ "type": "Feature", "properties": { "fid": 20, "geometriaaproximada": "Não", "nome": "Cuiabá", "geocodigo": "5103403", "tipocapital": "Capital estadual" }, "geometry": { "type": "Point", "coordinates": [ -56.0978564219999, -15.600666214999899 ] } },
{ "type": "Feature", "properties": { "fid": 21, "geometriaaproximada": "Não", "nome": "Recife", "geocodigo": "2611606", "tipocapital": "Capital estadual" }, "geometry": { "type": "Point", "coordinates": [ -34.879125316999904, -8.04263950999996 ] } },
{ "type": "Feature", "properties": { "fid": 22, "geometriaaproximada": "Não", "nome": "Aracaju", "geocodigo": "2800308", "tipocapital": "Capital estadual" }, "geometry": { "type": "Point", "coordinates": [ -37.063495106999895, -10.924874906999898 ] } },
{ "type": "Feature", "properties": { "fid": 23, "geometriaaproximada": "Não", "nome": "Maceió", "geocodigo": "2704302", "tipocapital": "Capital estadual" }, "geometry": { "type": "Point", "coordinates": [ -35.715051867999897, -9.640481850999949 ] } },
{ "type": "Feature", "properties": { "fid": 24, "geometriaaproximada": "Não", "nome": "Goiânia", "geocodigo": "5208707", "tipocapital": "Capital estadual" }, "geometry": { "type": "Point", "coordinates": [ -49.263088282999895, -16.697998324 ] } },
{ "type": "Feature", "properties": { "fid": 25, "geometriaaproximada": "Não", "nome": "Brasília", "geocodigo": "5300108", "tipocapital": "Capital federal" }, "geometry": { "type": "Point", "coordinates": [ -47.880611965, -15.783689652 ] } },
{ "type": "Feature", "properties": { "fid": 26, "geometriaaproximada": "Não", "nome": "Fortaleza", "geocodigo": "2304400", "tipocapital": "Capital estadual" }, "geometry": { "type": "Point", "coordinates": [ -38.525221515936977, -3.722856534745978 ] } },
{ "type": "Feature", "properties": { "fid": 27, "geometriaaproximada": "Não", "nome": "Vitória", "geocodigo": "3205309", "tipocapital": "Capital estadual" }, "geometry": { "type": "Point", "coordinates": [ -40.311095767999902, -20.315487077999897 ] } }
]
}
